Country,Airport,Latitude,Longitude
South Korea,Incheon International Airport,37.4602,126.4407
Japan,Narita International Airport,35.7719,140.3929
Singapore,Changi International Airport,1.3644,103.9915
Canada,Toronto Pearson International Airport,43.6777,-79.6248
Australia,Sydney Kingsford Smith International Airport,-33.9399,151.1753